ODOM 1624426467.78780746 106 106
ODOM 1624426467.88781619 102 101
ODOM 1624426467.98780918 101 101
ODOM 1624426468.08782339 99 98
ODOM 1624426468.18780947 99 96
ODOM 1624426468.28781056 102 100
ODOM 1624426468.38784647 108 110
ODOM 1624426468.48781061 116 114
ODOM 1624426468.58779979 124 124
ODOM 1624426468.68780208 129 129
ODOM 1624426468.78781581 135 134
ODOM 1624426468.88799715 143 132
ODOM 1624426468.98779917 148 134
ODOM 1624426469.08779526 146 132
ODOM 1624426469.18777561 142 137
ODOM 1624426469.28779006 138 139
ODOM 1624426469.38778067 133 132
ODOM 1624426469.48779821 131 130
ODOM 1624426469.5877831 127 126
ODOM 1624426469.68778658 122 120
ODOM 1624426469.78779745 115 115
ODOM 1624426469.88777494 108 111
ODOM 1624426469.98777795 97 103
ODOM 1624426470.08778715 94 97
ODOM 1624426470.18777108 91 90
ODOM 1624426470.28776526 89 88
ODOM 1624426470.38779926 84 85
ODOM 1624426470.48777866 85 83
ODOM 1624426470.58777261 88 89
ODOM 1624426470.68776965 97 96
ODOM 1624426470.78776622 103 105
ODOM 1624426470.88775587 109 112
ODOM 1624426470.98775697 115 122
ODOM 1624426471.08777213 120 131
ODOM 1624426471.18775129 124 138
ODOM 1624426471.28775287 134 138
ODOM 1624426471.38776684 139 136
ODOM 1624426471.48775673 139 139
ODOM 1624426471.58774424 138 137
ODOM 1624426471.68776202 136 135
ODOM 1624426471.78775287 135 132
ODOM 1624426471.88773608 125 125
ODOM 1624426471.9877336 135 138
ODOM 1624426472.08774185 132 141
ODOM 1624426472.18773031 136 143
ODOM 1624426472.28774071 141 138
ODOM 1624426472.38773561 141 138
ODOM 1624426472.48773837 137 135
ODOM 1624426472.58773661 133 133
ODOM 1624426472.68773198 130 129
ODOM 1624426472.78782463 130 131
ODOM 1624426472.88772845 132 136
ODOM 1624426472.98772883 132 141
ODOM 1624426473.08773708 132 143
ODOM 1624426473.18771172 134 146
ODOM 1624426473.28770685 132 141
ODOM 1624426473.38773465 137 137
ODOM 1624426473.48772812 134 133
ODOM 1624426473.5877049 131 132
ODOM 1624426473.68771911 130 128
ODOM 1624426473.78770709 135 133
ODOM 1624426473.8876996 138 136
ODOM 1624426473.98770022 139 138
ODOM 1624426474.08772755 140 139
ODOM 1624426474.18769646 141 140
ODOM 1624426474.28768229 141 140
ODOM 1624426474.38771629 141 140
ODOM 1624426474.48770046 143 142
ODOM 1624426474.58769512 143 143
ODOM 1624426474.68769503 143 142
ODOM 1624426474.78775954 141 138
ODOM 1624426474.88768792 139 137
ODOM 1624426474.98767757 141 142
ODOM 1624426475.08769703 130 130
ODOM 1624426475.18768859 128 129
ODOM 1624426475.28767776 126 124
ODOM 1624426475.38770199 123 121
ODOM 1624426475.48768973 120 119
ODOM 1624426475.58767772 121 121
ODOM 1624426475.68767762 120 117
ODOM 1624426475.7877562 125 127
ODOM 1624426475.88768435 130 131
ODOM 1624426475.9877665 138 137
ODOM 1624426476.08768296 139 138
ODOM 1624426476.1876545 143 141
ODOM 1624426476.28765702 142 141
ODOM 1624426476.38768864 144 143
ODOM 1624426476.48767257 142 144
ODOM 1624426476.58767581 145 143
ODOM 1624426476.68767023 143 143
ODOM 1624426476.78766799 144 142
ODOM 1624426476.88765526 142 143
ODOM 1624426476.98765492 140 137
ODOM 1624426477.0876677 137 137
ODOM 1624426477.1876533 137 135
ODOM 1624426477.28763914 139 139
ODOM 1624426477.38767147 141 142
ODOM 1624426477.48765635 141 141
ODOM 1624426477.58764362 141 140
ODOM 1624426477.6876421 139 139
ODOM 1624426477.78764319 135 141
ODOM 1624426477.88764358 130 138
ODOM 1624426477.98764277 124 136
ODOM 1624426478.08765244 129 130
ODOM 1624426478.1876328 124 122
ODOM 1624426478.28762579 132 131
ODOM 1624426478.3876574 136 136
ODOM 1624426478.48762941 138 135
ODOM 1624426478.58764052 137 137
ODOM 1624426478.68763256 134 132
ODOM 1624426478.78763866 133 132
ODOM 1624426478.88764691 125 131
ODOM 1624426478.98762703 125 127
ODOM 1624426479.08762789 123 118
ODOM 1624426479.1876061 120 121
ODOM 1624426479.28761125 113 112
ODOM 1624426479.38761258 115 113
ODOM 1624426479.48761535 118 116
ODOM 1624426479.58759928 118 120
ODOM 1624426479.68775415 119 115
ODOM 1624426479.78767657 116 115
ODOM 1624426479.88760662 120 119
ODOM 1624426479.9877727 101 104
ODOM 1624426480.08761096 112 108
ODOM 1624426480.18761301 114 115
ODOM 1624426480.28758144 119 118
ODOM 1624426480.38761187 125 124
ODOM 1624426480.48759127 129 132
ODOM 1624426480.58759761 131 137
ODOM 1624426480.68759274 131 140
ODOM 1624426480.78759146 133 137
ODOM 1624426480.88758564 126 124
ODOM 1624426480.98759151 132 131
ODOM 1624426481.08767581 139 138
ODOM 1624426481.18758321 124 119
ODOM 1624426481.28757405 122 117
ODOM 1624426481.38760829 113 112
ODOM 1624426481.48758245 106 105
ODOM 1624426481.58758879 98 99
ODOM 1624426481.6875813 96 94
ODOM 1624426481.78759623 81 81
ODOM 1624426481.88757396 87 84
ODOM 1624426481.98756266 82 84
ODOM 1624426482.08757806 80 82
ODOM 1624426482.18756413 78 83
ODOM 1624426482.28754711 87 85
ODOM 1624426482.38761377 93 93
ODOM 1624426482.48759532 101 101
ODOM 1624426482.58757162 110 109
ODOM 1624426482.68756461 116 118
ODOM 1624426482.78757572 128 125
ODOM 1624426482.88754916 131 130
ODOM 1624426482.98757076 136 135
ODOM 1624426483.08757234 137 136
ODOM 1624426483.18754458 138 138
ODOM 1624426483.28753257 140 139
ODOM 1624426483.38757777 137 137
ODOM 1624426483.4875536 137 136
ODOM 1624426483.58754516 135 135
ODOM 1624426483.68754053 131 129
ODOM 1624426483.78756356 126 125
ODOM 1624426483.88754416 122 120
ODOM 1624426483.98759294 117 118
ODOM 1624426484.08754301 116 116
ODOM 1624426484.18751907 114 114
ODOM 1624426484.28752232 118 119
ODOM 1624426484.38753486 128 126
ODOM 1624426484.48753309 132 130
ODOM 1624426484.58753061 135 134
ODOM 1624426484.68752241 137 136
ODOM 1624426484.78752065 139 139
ODOM 1624426484.88752818 139 141
ODOM 1624426484.98761153 138 144
ODOM 1624426485.08753657 128 137
ODOM 1624426485.18750572 134 147
ODOM 1624426485.28749633 131 143
ODOM 1624426485.38751125 133 140
ODOM 1624426485.48751235 133 130
ODOM 1624426485.58751345 127 127
ODOM 1624426485.68750882 124 123
ODOM 1624426485.78777838 125 126
ODOM 1624426485.88748455 125 123
ODOM 1624426485.98749948 129 128
ODOM 1624426486.08749843 133 133
ODOM 1624426486.18750286 138 137
ODOM 1624426486.2874763 138 137
ODOM 1624426486.38752699 141 140
ODOM 1624426486.48748732 138 139
ODOM 1624426486.58754778 139 139
ODOM 1624426486.68748641 138 137
ODOM 1624426486.78749442 138 135
ODOM 1624426486.88747001 130 129
ODOM 1624426486.98747873 126 125
ODOM 1624426487.08747339 122 123
ODOM 1624426487.18746638 121 119
ODOM 1624426487.28746343 121 122
ODOM 1624426487.38747358 125 126
ODOM 1624426487.48751521 133 132
ODOM 1624426487.58747959 136 134
ODOM 1624426487.68747187 137 135
ODOM 1624426487.78746486 135 136
ODOM 1624426487.88746309 129 134
ODOM 1624426487.98745203 127 134
ODOM 1624426488.08744597 125 130
ODOM 1624426488.18744493 129 126
ODOM 1624426488.28745341 132 132
ODOM 1624426488.38745475 137 136
ODOM 1624426488.48744273 140 137
ODOM 1624426488.58745313 140 138
ODOM 1624426488.68744564 140 140
ODOM 1624426488.78745914 139 141
ODOM 1624426488.88743448 141 142
ODOM 1624426488.98744035 137 142
ODOM 1624426489.08745456 131 140
ODOM 1624426489.18742847 130 135
ODOM 1624426489.28743315 130 129
ODOM 1624426489.38746405 131 129
ODOM 1624426489.48744082 126 125
ODOM 1624426489.58744693 136 136
ODOM 1624426489.68744063 138 138
ODOM 1624426489.7874589 142 141
ODOM 1624426489.88745999 142 140
ODOM 1624426489.98741293 143 141
ODOM 1624426490.08744478 140 138
ODOM 1624426490.18741965 137 137
ODOM 1624426490.28740811 133 133
ODOM 1624426490.38744569 133 134
ODOM 1624426490.48742843 131 129
ODOM 1624426490.58741713 127 125
ODOM 1624426490.68745232 124 123
ODOM 1624426490.78743482 124 123
ODOM 1624426490.88740969 128 127
ODOM 1624426490.98741603 132 132
ODOM 1624426491.08742952 133 134
ODOM 1624426491.18758702 138 138
ODOM 1624426491.28739047 137 135
ODOM 1624426491.38742256 135 134
ODOM 1624426491.48740911 133 131
ODOM 1624426491.58740449 129 129
ODOM 1624426491.6874032 126 126
ODOM 1624426491.78740549 121 120
ODOM 1624426491.88741422 116 117
ODOM 1624426491.987396 116 116
ODOM 1624426492.0874126 115 112
ODOM 1624426492.1873796 118 119
ODOM 1624426492.28737068 126 125
ODOM 1624426492.38742876 132 130
ODOM 1624426492.48740149 135 134
ODOM 1624426492.58737922 136 137
ODOM 1624426492.6874547 133 133
ODOM 1624426492.78739738 131 135
ODOM 1624426492.88736773 131 130
ODOM 1624426492.98736715 130 128
ODOM 1624426493.08738494 124 124
ODOM 1624426493.18736315 124 122
ODOM 1624426493.28735304 121 118
ODOM 1624426493.38736892 119 121
ODOM 1624426493.4873724 122 122
ODOM 1624426493.58738089 124 123
ODOM 1624426493.68736649 122 120
ODOM 1624426493.7873652 119 120
ODOM 1624426493.88734841 111 109
ODOM 1624426493.98735833 116 113
ODOM 1624426494.08738708 107 108
ODOM 1624426494.1873467 105 103
ODOM 1624426494.28734136 98 99
ODOM 1624426494.38751745 95 94
ODOM 1624426494.48735952 91 91
ODOM 1624426494.5873518 90 91
ODOM 1624426494.68740416 94 91
ODOM 1624426494.78734326 99 101
ODOM 1624426494.88733292 109 106
ODOM 1624426494.98733664 115 114
ODOM 1624426495.08735728 121 121
ODOM 1624426495.18732095 130 129
ODOM 1624426495.28732324 131 130
ODOM 1624426495.38737297 131 132
ODOM 1624426495.48734856 129 130
ODOM 1624426495.58734083 131 129
ODOM 1624426495.68733335 127 126
ODOM 1624426495.78748822 120 125
ODOM 1624426495.88732886 117 119
ODOM 1624426495.98732042 118 115
ODOM 1624426496.08733439 118 118
ODOM 1624426496.18732214 124 126
ODOM 1624426496.28730536 132 130
ODOM 1624426496.38733816 133 131
ODOM 1624426496.48731542 132 130
ODOM 1624426496.58731222 129 128
ODOM 1624426496.6873107 127 127
ODOM 1624426496.78731537 125 123
ODOM 1624426496.88730621 126 125
ODOM 1624426496.98733306 130 131
ODOM 1624426497.08732677 135 135
ODOM 1624426497.18730068 139 137
ODOM 1624426497.28729224 140 139
ODOM 1624426497.38733244 138 141
ODOM 1624426497.48730779 135 140
ODOM 1624426497.58729935 139 137
ODOM 1624426497.68730569 134 133
ODOM 1624426497.78730297 132 131
ODOM 1624426497.88728905 129 128
ODOM 1624426497.98728371 128 127
ODOM 1624426498.08730125 130 129
ODOM 1624426498.18727779 135 132
ODOM 1624426498.28727341 128 128
ODOM 1624426498.38737941 138 136
ODOM 1624426498.48728132 139 129
ODOM 1624426498.58727789 139 127
ODOM 1624426498.68727589 132 129
ODOM 1624426498.78728843 130 130
ODOM 1624426498.88726783 124 121
ODOM 1624426498.98731208 124 122
ODOM 1624426499.08726478 116 115
ODOM 1624426499.18726134 119 120